{"type":"FeatureCollection","features":[{"type":"Feature","properties":{"OBJECTID":273,"NOM":"Àrea recreativa puig de Santa Magdalena","MUNICIPI":"Inca","TIPUS":1,"LINK":"http://www.caib.es/sacmicrofront/contenido.do?mkey=M34&lang=CA&cont=22785","DESCRIP_ES":"Dispone de mesas, fogones, WC."},"geometry":{"type":"Point","coordinates":[2.95559,39.72708]}},{"type":"Feature","properties":{"OBJECTID":283,"NOM":"Àrea recreativa puig de Santuïri","MUNICIPI":"Pollença","TIPUS":1,"LINK":"http://www.caib.es/sacmicrofront/contenido.do?mkey=M34&lang=CA&cont=22785","DESCRIP_ES":"Dispone de mesas, fogones."},"geometry":{"type":"Point","coordinates":[3.03154,39.87694]}},{"type":"Feature","properties":{"OBJECTID":285,"NOM":"Àrea recreativa de cala Murta","MUNICIPI":"Pollença","TIPUS":1,"LINK":"http://www.caib.es/sacmicrofront/contenido.do?mkey=M34&lang=CA&cont=22785","DESCRIP_ES":"Dispone de mesas, WC."},"geometry":{"type":"Point","coordinates":[3.17981,39.94002]}},{"type":"Feature","properties":{"OBJECTID":286,"NOM":"Àrea recreativa sa pleta de s'Obac","MUNICIPI":"Sa Pobla","TIPUS":1,"LINK":"http://www.caib.es/sacmicrofront/contenido.do?mkey=M34&lang=CA&cont=22785","DESCRIP_ES":"Dispone de mesas, WC."},"geometry":{"type":"Point","coordinates":[3.01587,39.80654]}},{"type":"Feature","properties":{"OBJECTID":23,"NOM":"Àrea recreativa es Fornassos","MUNICIPI":"Selva","TIPUS":1,"LINK":"http://www.caib.es/sacmicrofront/contenido.do?mkey=M34&lang=CA&cont=22785","DESCRIP_ES":"Dispone de mesas, fogones, WC, juegos infantiles."},"geometry":{"type":"Point","coordinates":[2.89754,39.76947]}},{"type":"Feature","properties":{"OBJECTID":24,"NOM":"Àrea recreativa sa Coveta Negra","MUNICIPI":"Selva","TIPUS":1,"LINK":"http://www.caib.es/sacmicrofront/contenido.do?mkey=M34&lang=CA&cont=22785","DESCRIP_ES":"Dispone de mesas, fogones, WC."},"geometry":{"type":"Point","coordinates":[2.89092,39.79039]}},{"type":"Feature","properties":{"OBJECTID":174,"NOM":"Àrea Recreativa sa Bassa","MUNICIPI":"Fornalutx","TIPUS":1,"LINK":"http://www.caib.es/sacmicrofront/contenido.do?mkey=M34&lang=CA&cont=22785","DESCRIP_ES":"Dispone de mesas, fogones y WC."},"geometry":{"type":"Point","coordinates":[2.74602,39.79411]}},{"type":"Feature","properties":{"OBJECTID":176,"NOM":"Àrea recreativa Marjanor","MUNICIPI":"Escorca","TIPUS":1,"LINK":"http://www.caib.es/sacmicrofront/contenido.do?mkey=M34&lang=CA&cont=22785","DESCRIP_ES":"Dispone de mesas, fogones y WC."},"geometry":{"type":"Point","coordinates":[2.89209,39.82241]}},{"type":"Feature","properties":{"OBJECTID":274,"NOM":"Àrea recreativa de Caubet","MUNICIPI":"Bunyola","TIPUS":1,"LINK":"http://www.caib.es/sacmicrofront/contenido.do?mkey=M34&lang=CA&cont=22785","DESCRIP_ES":"Dispone de mesas, fogones, WC y juegos infantiles."},"geometry":{"type":"Point","coordinates":[2.68491,39.66843]}},{"type":"Feature","properties":{"OBJECTID":175,"NOM":"Àrea recreativa font des Noguer","MUNICIPI":"Escorca","TIPUS":1,"LINK":"http://www.caib.es/sacmicrofront/contenido.do?mkey=M34&lang=CA&cont=22785","DESCRIP_ES":"Dispone de mesas, fogones, WC."},"geometry":{"type":"Point","coordinates":[2.79943,39.78721]}},{"type":"Feature","properties":{"OBJECTID":22,"NOM":"Àrea recreativa de Ca s'Amitger","MUNICIPI":"Escorca","TIPUS":1,"LINK":"http://www.caib.es/sacmicrofront/contenido.do?mkey=M34&lang=CA&cont=22785","DESCRIP_ES":"Dispone de mesas, fogones, WC."},"geometry":{"type":"Point","coordinates":[2.88366,39.82016]}},{"type":"Feature","properties":{"OBJECTID":330,"NOM":"Àrea recreativa es Pixarells","MUNICIPI":"Escorca","TIPUS":1,"LINK":"http://www.caib.es/sacmicrofront/contenido.do?mkey=M34&lang=CA&cont=22785","DESCRIP_ES":"Dispone de mesas, fogones y WC."},"geometry":{"type":"Point","coordinates":[2.89526,39.83364]}},{"type":"Feature","properties":{"OBJECTID":288,"NOM":"Àrea recreativa Menut II","MUNICIPI":"Escorca","TIPUS":1,"LINK":"http://www.caib.es/sacmicrofront/contenido.do?mkey=M34&lang=CA&cont=22785","DESCRIP_ES":"Dispone de mesas, fogones, WC y juegos infantiles."},"geometry":{"type":"Point","coordinates":[2.89656,39.83908]}},{"type":"Feature","properties":{"OBJECTID":177,"NOM":"Àrea recreativa puig de Maria","MUNICIPI":"Pollença","TIPUS":1,"LINK":"http://www.caib.es/sacmicrofront/contenido.do?mkey=M34&lang=CA&cont=22785","DESCRIP_ES":"Dispone de mesas, fogones."},"geometry":{"type":"Point","coordinates":[3.02296,39.86911]}},{"type":"Feature","properties":{"OBJECTID":297,"NOM":"Àrea recreativa Can Picafort 2","MUNICIPI":"Santa Margalida","TIPUS":1,"LINK":"http://www.caib.es/sacmicrofront/contenido.do?mkey=M34&lang=CA&cont=22785","DESCRIP_ES":"Dispone de mesas, WC y juegos infantiles."},"geometry":{"type":"Point","coordinates":[3.15705,39.7609]}},{"type":"Feature","properties":{"OBJECTID":272,"NOM":"Àrea recreativa de s'Ermita de Llubí 2","MUNICIPI":"Llubí","TIPUS":1,"LINK":"http://www.caib.es/sacmicrofront/contenido.do?mkey=M34&lang=CA&cont=22785","DESCRIP_ES":"Dispone de mesas, fogones, WC y juegos infantiles."},"geometry":{"type":"Point","coordinates":[2.99617,39.70625]}},{"type":"Feature","properties":{"OBJECTID":301,"NOM":"Àrea recreativa Can Pancuit","MUNICIPI":"Llucmajor","TIPUS":1,"LINK":"http://www.caib.es/sacmicrofront/contenido.do?mkey=M34&lang=CA&cont=22785","DESCRIP_ES":"Dispone de mesas, WC."},"geometry":{"type":"Point","coordinates":[2.92808,39.51773]}},{"type":"Feature","properties":{"OBJECTID":331,"NOM":"Àrea recreativa es Pont Trencat","MUNICIPI":"Consell","TIPUS":1,"LINK":"http://www.caib.es/sacmicrofront/contenido.do?mkey=M34&lang=CA&cont=22785","DESCRIP_ES":"Dispone de mesas."},"geometry":{"type":"Point","coordinates":[2.81085,39.68493]}},{"type":"Feature","properties":{"OBJECTID":298,"NOM":"Àrea recreativa Lloret 2","MUNICIPI":"Lloret de Vistalegre","TIPUS":1,"LINK":"http://www.caib.es/sacmicrofront/contenido.do?mkey=M34&lang=CA&cont=22785","DESCRIP_ES":"Dispone de mesas, fogones, WC y juegos infantiles."},"geometry":{"type":"Point","coordinates":[2.9674,39.61266]}},{"type":"Feature","properties":{"OBJECTID":308,"NOM":"Àrea recreativa Sant Salvador","MUNICIPI":"Felanitx","TIPUS":1,"LINK":"http://www.caib.es/sacmicrofront/contenido.do?mkey=M34&lang=CA&cont=22785","DESCRIP_ES":"Dispone de mesas, fogones, WC."},"geometry":{"type":"Point","coordinates":[3.18655,39.45571]}},{"type":"Feature","properties":{"OBJECTID":292,"NOM":"Àrea recreativa Crist Rei","MUNICIPI":"Selva","TIPUS":1,"LINK":"http://www.caib.es/sacmicrofront/contenido.do?mkey=M34&lang=CA&cont=22785","DESCRIP_ES":"Dispone de mesas, fogones, WC."},"geometry":{"type":"Point","coordinates":[2.89672,39.74747]}},{"type":"Feature","properties":{"OBJECTID":1294,"NOM":"Àrea recreativa Santuari de Bonany","MUNICIPI":"Petra","TIPUS":1,"LINK":"http://www.caib.es/sacmicrofront/contenido.do?mkey=M34&lang=CA&cont=22785","DESCRIP_ES":"Dispone de mesas y WC."},"geometry":{"type":"Point","coordinates":[3.08706,39.5947]}},{"type":"Feature","properties":{"OBJECTID":293,"NOM":"Àrea recreativa comuna de Biniamar","MUNICIPI":"Selva","TIPUS":1,"LINK":"http://www.caib.es/sacmicrofront/contenido.do?mkey=M34&lang=CA&cont=22785","DESCRIP_ES":"Dispone de mesas, fogones, WC."},"geometry":{"type":"Point","coordinates":[2.86676,39.73875]}},{"type":"Feature","properties":{"OBJECTID":1296,"NOM":"Àrea recreativa s'Amarador","MUNICIPI":"Santanyí","TIPUS":1,"LINK":"http://www.caib.es/sacmicrofront/contenido.do?mkey=M34&lang=CA&cont=22785","DESCRIP_ES":"Dispone de mesas."},"geometry":{"type":"Point","coordinates":[3.18527,39.34842]}},{"type":"Feature","properties":{"OBJECTID":1297,"NOM":"Àrea recreativa s'Alqueria Vella","MUNICIPI":"Artà","TIPUS":1,"LINK":"http://www.caib.es/sacmicrofront/contenido.do?mkey=M34&lang=CA&cont=22785","DESCRIP_ES":"Dispone de mesas."},"geometry":{"type":"Point","coordinates":[3.33505,39.73681]}},{"type":"Feature","properties":{"OBJECTID":1298,"NOM":"Àrea recreativa de Planícia","MUNICIPI":"Banyalbufar","TIPUS":1,"LINK":"http://www.caib.es/sacmicrofront/contenido.do?mkey=M34&lang=CA&cont=22785","DESCRIP_ES":"Dispone de mesas y WC."},"geometry":{"type":"Point","coordinates":[2.49973,39.66903]}},{"type":"Feature","properties":{"OBJECTID":287,"NOM":"Àrea recreativa Menut I","MUNICIPI":"Escorca","TIPUS":1,"LINK":"http://www.caib.es/sacmicrofront/contenido.do?mkey=M34&lang=CA&cont=22785","DESCRIP_ES":"Dispone de mesas, fogones, WC, juegos infantiles."},"geometry":{"type":"Point","coordinates":[2.89775,39.83705]}},{"type":"Feature","properties":{"OBJECTID":306,"NOM":"Àrea recreativa Son Tries","MUNICIPI":"Esporles","TIPUS":1,"LINK":"http://www.caib.es/sacmicrofront/contenido.do?mkey=M34&lang=CA&cont=22785","DESCRIP_ES":"Dispone de mesas, fogones, WC, juegos infantiles."},"geometry":{"type":"Point","coordinates":[2.57411,39.66279]}},{"type":"Feature","properties":{"OBJECTID":282,"NOM":"Àrea recreativa coll Baix","MUNICIPI":"Alcúdia","TIPUS":1,"LINK":"http://www.caib.es/sacmicrofront/contenido.do?mkey=M34&lang=CA&cont=22785","DESCRIP_ES":"Dispone de mesas."},"geometry":{"type":"Point","coordinates":[3.18487,39.85977]}},{"type":"Feature","properties":{"OBJECTID":299,"NOM":"Àrea recreativa puig de Consolació","MUNICIPI":"Sant Joan","TIPUS":1,"LINK":"http://www.caib.es/sacmicrofront/contenido.do?mkey=M34&lang=CA&cont=22785","DESCRIP_ES":"Dispone de mesas, fogones, WC, juegos infantiles."},"geometry":{"type":"Point","coordinates":[3.03544,39.59044]}},{"type":"Feature","properties":{"OBJECTID":173,"NOM":"Àrea recreativa de Son Fortuny","MUNICIPI":"Estellencs","TIPUS":1,"LINK":"http://www.caib.es/sacmicrofront/contenido.do?mkey=M34&lang=CA&cont=22785","DESCRIP_ES":"Dispone de mesas, fogones."},"geometry":{"type":"Point","coordinates":[2.46866,39.64451]}},{"type":"Feature","properties":{"OBJECTID":291,"NOM":"Àrea recreativa gorg Blau","MUNICIPI":"Escorca","TIPUS":1,"LINK":"http://www.caib.es/sacmicrofront/contenido.do?mkey=M34&lang=CA&cont=22785","DESCRIP_ES":"Dispone de mesas, fogones."},"geometry":{"type":"Point","coordinates":[2.81166,39.80059]}},{"type":"Feature","properties":{"OBJECTID":294,"NOM":"Àrea recreativa de Llubí","MUNICIPI":"Llubí","TIPUS":1,"LINK":"http://www.caib.es/sacmicrofront/contenido.do?mkey=M34&lang=CA&cont=22785","DESCRIP_ES":"Dispone de mesas, fogones, WC y juegos infantiles."},"geometry":{"type":"Point","coordinates":[3.01053,39.70681]}},{"type":"Feature","properties":{"OBJECTID":295,"NOM":"Àrea recreativa sa Bisbal","MUNICIPI":"Maria de la Salut","TIPUS":1,"LINK":"http://www.caib.es/sacmicrofront/contenido.do?mkey=M34&lang=CA&cont=22785","DESCRIP_ES":"Dispone de mesas, fogones, WC."},"geometry":{"type":"Point","coordinates":[3.08639,39.69499]}},{"type":"Feature","properties":{"OBJECTID":296,"NOM":"Àrea recreativa Can Picafort","MUNICIPI":"Santa Margalida","TIPUS":1,"LINK":"http://www.caib.es/sacmicrofront/contenido.do?mkey=M34&lang=CA&cont=22785","DESCRIP_ES":"Dispone de mesas, fogones, WC y juegos infantiles."},"geometry":{"type":"Point","coordinates":[3.14783,39.76421]}},{"type":"Feature","properties":{"OBJECTID":300,"NOM":"Àrea recreativa sa Sort de D. Macià","MUNICIPI":"Sencelles","TIPUS":1,"LINK":"http://www.caib.es/sacmicrofront/contenido.do?mkey=M34&lang=CA&cont=22785","DESCRIP_ES":"Dispone de mesas, fogones, WC, juegos infantiles."},"geometry":{"type":"Point","coordinates":[2.86334,39.63667]}},{"type":"Feature","properties":{"OBJECTID":302,"NOM":"Àrea recreativa sa font de n'Alis","MUNICIPI":"Santanyí","TIPUS":1,"LINK":"http://www.caib.es/sacmicrofront/contenido.do?mkey=M34&lang=CA&cont=22785","DESCRIP_ES":"Dispone de mesas, WC, juegos infantiles."},"geometry":{"type":"Point","coordinates":[3.18936,39.35241]}},{"type":"Feature","properties":{"OBJECTID":303,"NOM":"Àrea recreativa s'Illot","MUNICIPI":"Alcúdia","TIPUS":1,"LINK":"http://www.caib.es/sacmicrofront/contenido.do?mkey=M34&lang=CA&cont=22785","DESCRIP_ES":"Dispone de mesas y WC."},"geometry":{"type":"Point","coordinates":[3.16028,39.87204]}},{"type":"Feature","properties":{"OBJECTID":304,"NOM":"Àrea recreativa sa Bassa II","MUNICIPI":"Fornalutx","TIPUS":1,"LINK":"http://www.caib.es/sacmicrofront/contenido.do?mkey=M34&lang=CA&cont=22785","DESCRIP_ES":"Dispone de mesas, fogones, WC."},"geometry":{"type":"Point","coordinates":[2.74647,39.79285]}},{"type":"Feature","properties":{"OBJECTID":305,"NOM":"Àrea recreativa Son Moragues","MUNICIPI":"Valldemossa","TIPUS":1,"LINK":"http://www.caib.es/sacmicrofront/contenido.do?mkey=M34&lang=CA&cont=22785","DESCRIP_ES":"Dispone de mesas, fogones, WC."},"geometry":{"type":"Point","coordinates":[2.65319,39.72636]}},{"type":"Feature","properties":{"OBJECTID":309,"NOM":"Àrea recreativa Sant Salvador","MUNICIPI":"Felanitx","TIPUS":1,"LINK":"http://www.caib.es/sacmicrofront/contenido.do?mkey=M34&lang=CA&cont=22785","DESCRIP_ES":"Dispone de mesas, fogones, WC."},"geometry":{"type":"Point","coordinates":[3.18737,39.45506]}},{"type":"Feature","properties":{"OBJECTID":307,"NOM":"Àrea recreativa comuna de Bunyola","MUNICIPI":"Bunyola","TIPUS":1,"LINK":"http://www.caib.es/sacmicrofront/contenido.do?mkey=M34&lang=CA&cont=22785","DESCRIP_ES":"Dispone de mesas, fogones, WC."},"geometry":{"type":"Point","coordinates":[2.72807,39.71022]}}]}